{
  "markedbreweries": [
    {
      "id": "d81ff708-b5d2-478f-af6a-6d40f5beb9ac",
      "name": "12 Gates Brewing Company",
      "brewery_type": "brewpub",
      "address_1": "80 Earhart Dr Ste 20",
      "address_2": null,
      "address_3": null,
      "city": "Williamsville",
      "state_province": "New York",
      "postal_code": "14221-7804",
      "country": "United States",
      "longitude": null,
      "latitude": null,
      "phone": "7169066600",
      "website_url": "http://www.12gatesbrewing.com",
      "state": "New York",
      "street": "80 Earhart Dr Ste 20",
      "page": 1
    },
    {
      "id": "ee6d39c6-092f-4623-8099-5b8643f70dbe",
      "name": "16 Stone Brewpub",
      "brewery_type": "brewpub",
      "address_1": "9542 Main St",
      "address_2": null,
      "address_3": null,
      "city": "Holland Patent",
      "state_province": "New York",
      "postal_code": "13354",
      "country": "United States",
      "longitude": "-75.2565195",
      "latitude": "43.24211175",
      "phone": "3158658500",
      "website_url": "http://www.16stonebrewpub.com",
      "state": "New York",
      "street": "9542 Main St",
      "page": 1
    },
    {
      "id": "950180bd-29c9-46b3-ad0c-e6f09799ec7f",
      "name": "13 Below Brewery",
      "brewery_type": "micro",
      "address_1": "7391 Forbes Rd",
      "address_2": null,
      "address_3": null,
      "city": "Cincinnati",
      "state_province": "Ohio",
      "postal_code": "45233-1013",
      "country": "United States",
      "longitude": "-84.70634815",
      "latitude": "39.12639764",
      "phone": "5139750613",
      "website_url": "http://www.13belowbrewery.com",
      "state": "Ohio",
      "street": "7391 Forbes Rd",
      "page": 1
    },
    {
      "id": "85192a9c-58a4-48c3-bd9d-496d09d22aa3",
      "name": "16 Lots Brewing",
      "brewery_type": "brewpub",
      "address_1": "753 Reading Rd",
      "address_2": null,
      "address_3": null,
      "city": "Mason",
      "state_province": "Ohio",
      "postal_code": "45040-1303",
      "country": "United States",
      "longitude": "-84.3183801",
      "latitude": "39.3545967",
      "phone": "5134863672",
      "website_url": "http://www.16lots.com",
      "state": "Ohio",
      "street": "753 Reading Rd",
      "page": 1
    },
    {
      "id": "836cb05e-ee8f-4798-859e-fe0bedb0186a",
      "name": "2 Tones Brewing Co.",
      "brewery_type": "micro",
      "address_1": "4539 E Broad St",
      "address_2": null,
      "address_3": null,
      "city": "Whitehall",
      "state_province": "Ohio",
      "postal_code": "43213-1308",
      "country": "United States",
      "longitude": "-82.9118174",
      "latitude": "40.0030689",
      "phone": null,
      "website_url": "http://www.2tonesbrewingco.com",
      "state": "Ohio",
      "street": "4539 E Broad St",
      "page": 1
    },
    {
      "id": "53efe9e9-dbb3-4c98-ab77-61515abef2a9",
      "name": "4kd Crick Brewery",
      "brewery_type": "brewpub",
      "address_1": "211 Carpenter Rd",
      "address_2": null,
      "address_3": null,
      "city": "Defiance",
      "state_province": "Ohio",
      "postal_code": "43512-1718",
      "country": "United States",
      "longitude": "-84.341647",
      "latitude": "41.296252",
      "phone": "4199562863",
      "website_url": "http://Www.4kdcrickbrewery.com",
      "state": "Ohio",
      "street": "211 Carpenter Rd",
      "page": 1
    }
  ]
}